# Time (s),Altitude (km),Vertical velocity (m/s),Vertical acceleration (m/s²),Total velocity (m/s),Total acceleration (m/s²),Position East of launch (km),Position North of launch (km),Lateral distance (km),Lateral direction (°),Lateral velocity (m/s),Lateral acceleration (m/s²),Latitude (°),Longitude (°),Gravitational acceleration (m/s²),Angle of attack (°),Roll rate (r/s),Pitch rate (r/s),Yaw rate (r/s),Mass (kg),Propellant mass (kg),Longitudinal moment of inertia (kg·m²),Rotational moment of inertia (kg·m²),CP location (m),CG location (m),Stability margin calibers (​),Mach number (​),Reynolds number (​),Thrust (N),Drag force (N),Drag coefficient (​),Axial drag coefficient (​),Friction drag coefficient (​),Pressure drag coefficient (​),Base drag coefficient (​),Normal force coefficient (​),Pitch moment coefficient (​),Yaw moment coefficient (​),Side force coefficient (​),Roll moment coefficient (​),Roll forcing coefficient (​),Roll damping coefficient (​),Pitch damping coefficient (​),Coriolis acceleration (m/s²),Reference length (m),Reference area (m²),Vertical orientation (zenith) (°),Lateral orientation (azimuth) (°),Wind velocity (m/s),Air temperature (°C),Air pressure (mbar),Speed of sound (m/s),Simulation time step (s),Computation time (s)
# Event LAUNCH occurred at t=0 seconds
# Event IGNITION occurred at t=0 seconds
0,0,0,-8.5436,0,8.5436,0,0,0,0,0,0.0014911,43.796,-120.65,9.8008,89.99,0,0,0,34.989,8.7035,54.266,0.10337,NaN,2.509,NaN,0.0076084,544783,43.988,0,0.74082,0,0.54477,0.07604,0.12001,NaN,NaN,NaN,NaN,NaN,NaN,NaN,NaN,0,0.1397,0.015328,89.99,0,NaN,5.965,857.26,334.91,2e-3,0.0023574
2e-3,0,0,-6.0292,0,6.0292,0,0,0,0,0,0.0010523,43.796,-120.65,9.8008,89.99,0,0,0,34.989,8.7035,54.266,0.10337,NaN,2.509,NaN,0.0076212,545699,131.97,0,0.74063,0,0.54458,0.07604,0.12001,NaN,NaN,NaN,NaN,NaN,NaN,NaN,NaN,0,0.1397,0.015328,89.99,0,NaN,5.965,857.26,334.91,2e-3,0.0035523
4e-3,0,0,-3.5146,0,3.5146,0,0,0,0,0,6.1341e-4,43.796,-120.65,9.8008,89.99,0,0,0,34.988,8.7025,54.266,0.10337,NaN,2.509,NaN,0.0076339,546614,219.94,0,0.74043,0,0.54439,0.07604,0.12001,NaN,NaN,NaN,NaN,NaN,NaN,NaN,NaN,0,0.1397,0.015328,89.99,0,NaN,5.965,857.26,334.91,2e-3,0.0049615
6e-3,0,0,-0.99985,0,0.99985,0,0,0,0,0,1.7451e-4,43.796,-120.65,9.8008,89.99,0,0,0,34.987,8.7016,54.265,0.10337,NaN,2.5089,NaN,0.0076467,547530,307.92,0,0.74024,0,0.5442,0.07604,0.12001,NaN,NaN,NaN,NaN,NaN,NaN,NaN,NaN,0,0.1397,0.015328,89.99,0,NaN,5.965,857.26,334.91,2e-3,0.006341
8e-3,0,0,1.515,0,1.515,0,0,0,0,0,2.6442e-4,43.796,-120.65,9.8008,89.99,0,0,0,34.986,8.7006,54.265,0.10337,NaN,2.5089,NaN,0.0076595,548445,395.9,0,0.74005,0,0.544,0.07604,0.12001,NaN,NaN,NaN,NaN,NaN,NaN,NaN,NaN,0,0.1397,0.015328,89.99,0,NaN,5.965,857.26,334.91,2e-3,0.0075848
0.01,0,0.0030306,4.0301,0.0030306,4.0301,0,0,0,0,5.2894e-7,7.0338e-4,43.796,-120.65,9.8008,89.922,0,0,0,34.985,8.6996,54.264,0.10337,NaN,2.5089,NaN,0.0076723,549361,483.87,0,0.73986,0,0.54381,0.07604,0.12001,NaN,NaN,NaN,NaN,NaN,NaN,NaN,NaN,3.1903e-7,0.1397,0.015328,89.99,0,NaN,5.965,857.26,334.91,2e-3,0.0088978
0.012,1.7152e-8,0.011091,6.5452,0.011091,6.5452,0,0,0,0,1.9358e-6,0.0011424,43.796,-120.65,9.8008,89.743,0,0,0,34.984,8.6986,54.264,0.10336,NaN,2.5089,NaN,0.0076852,550282,571.85,9.0826e-9,0.73967,1.6719e-7,0.54362,0.07604,0.12001,NaN,NaN,NaN,NaN,NaN,NaN,NaN,NaN,1.1676e-6,0.1397,0.015328,89.99,0,NaN,5.965,857.26,334.91,2e-3,0.010475
0.014,5.2426e-8,0.024183,9.0605,0.024183,9.0605,0,0,0,0,4.2206e-6,0.0015814,43.796,-120.65,9.8008,89.453,0,0,0,34.983,8.6976,54.263,0.10336,NaN,2.5089,NaN,0.0076982,551217,659.83,8.7885e-8,0.73947,1.6123e-6,0.54343,0.07604,0.12001,NaN,NaN,NaN,NaN,NaN,NaN,NaN,NaN,2.5457e-6,0.1397,0.015328,89.99,0,NaN,5.965,857.26,334.91,2e-3,0.01167
0.016,1.1891e-7,0.042304,11.576,0.042304,11.576,0,0,0,0,7.3835e-6,0.0020204,43.796,-120.65,9.8008,89.051,0,0,0,34.982,8.6967,54.263,0.10336,NaN,2.5089,NaN,0.0077117,552183,747.8,4.5679e-7,0.73927,8.3508e-6,0.54322,0.07604,0.12001,NaN,NaN,NaN,NaN,NaN,NaN,NaN,NaN,4.4534e-6,0.1397,0.015328,89.99,0,NaN,5.965,857.26,334.91,2e-3,0.012777
0.018,2.2667e-7,0.065457,14.092,0.065457,14.092,0,0,0,0,1.1424e-5,0.0024594,43.796,-120.65,9.8008,88.54,0,0,0,34.981,8.6957,54.262,0.10336,NaN,2.5088,NaN,0.007726,553202,835.78,1.6612e-6,0.73906,3.0258e-5,0.54301,0.07604,0.12001,NaN,NaN,NaN,NaN,NaN,NaN,NaN,NaN,6.8907e-6,0.1397,0.015328,89.99,0,NaN,5.965,857.26,334.91,2e-3,0.014099
0.02,3.8577e-7,0.093642,16.607,0.093642,16.607,0,0,0,0,1.6344e-5,0.0028985,43.796,-120.65,9.8008,87.92,0,0,0,34.98,8.6947,54.262,0.10336,NaN,2.5088,NaN,0.0077413,554303,923.76,4.793e-6,0.73883,8.6955e-5,0.54279,0.07604,0.12001,NaN,NaN,NaN,NaN,NaN,NaN,NaN,NaN,9.8576e-6,0.1397,0.015328,89.99,0,NaN,5.965,857.26,334.91,2e-3,0.015021
0.022,6.0627e-7,0.12686,19.123,0.12686,19.123,0,0,0,0,2.2141e-5,0.0033376,43.796,-120.65,9.8008,87.192,0,0,0,34.979,8.6937,54.261,0.10336,NaN,2.5088,NaN,0.0077583,555521,1011.7,1.1758e-5,0.73858,2.1237e-4,0.54254,0.07604,0.12001,NaN,NaN,NaN,NaN,NaN,NaN,NaN,NaN,1.3354e-5,0.1397,0.015328,89.99,0,NaN,5.965,857.26,334.91,2e-3,0.015937
0.024,8.9823e-7,0.1651,21.639,0.1651,21.639,0,0,0,0,2.8816e-5,0.0037767,43.796,-120.65,9.8008,86.356,0,0,0,34.978,8.6928,54.26,0.10336,NaN,2.5088,NaN,0.0077775,556895,1099.7,2.5577e-5,0.7383,4.597e-4,0.54225,0.07604,0.12001,NaN,NaN,NaN,NaN,NaN,NaN,NaN,NaN,1.7381e-5,0.1397,0.015328,89.99,0,NaN,5.965,857.26,334.91,2e-3,0.016871
0.026,1.2717e-6,0.20838,24.155,0.20838,24.155,0,0,0,0,3.637e-5,0.0042159,43.796,-120.65,9.8008,85.414,0,0,0,34.977,8.6918,54.26,0.10336,NaN,2.5088,NaN,0.0077996,558472,1187.7,5.0715e-5,0.73798,9.0637e-4,0.54193,0.07604,0.12001,NaN,NaN,NaN,NaN,NaN,NaN,NaN,NaN,2.1937e-5,0.1397,0.015328,89.99,0,NaN,5.965,857.26,334.91,2e-3,0.017917
0.028,1.7368e-6,0.2567,26.672,0.2567,26.672,0,0,0,0,4.4802e-5,0.0046551,43.796,-120.65,9.8008,84.369,0,0,0,34.976,8.6908,54.259,0.10335,NaN,2.5087,NaN,0.0078251,560303,1275.7,9.3413e-5,0.7376,0.0016586,0.54156,0.07604,0.12001,NaN,NaN,NaN,NaN,NaN,NaN,NaN,NaN,2.7022e-5,0.1397,0.015328,89.99,0,NaN,5.965,857.26,334.91,2e-3,0.019438
0.03,2.3035e-6,0.31004,29.188,0.31004,29.188,0,0,0,0,5.4112e-5,0.0050943,43.796,-120.65,9.8008,83.222,0,0,0,34.975,8.6898,54.259,0.10335,NaN,2.5087,NaN,0.0078551,562446,1363.6,1.6202e-4,0.73717,0.0028549,0.54112,0.07604,0.12001,NaN,NaN,NaN,NaN,NaN,NaN,NaN,NaN,3.2638e-5,0.1397,0.015328,89.99,0,NaN,5.965,857.26,334.91,2e-3,0.020996
0.032,2.982e-6,0.36842,31.705,0.36842,31.705,0,0,0,0,6.4301e-5,0.0055335,43.796,-120.65,9.8008,81.976,0,0,0,34.974,8.6889,54.258,0.10335,NaN,2.5087,NaN,0.0078902,564962,1451.6,2.6731e-4,0.73666,0.0046682,0.54061,0.07604,0.12001,NaN,NaN,NaN,NaN,NaN,NaN,NaN,NaN,3.8784e-5,0.1397,0.015328,89.99,0,NaN,5.965,857.26,334.91,2e-3,0.023266
0.034,3.7823e-6,0.43183,34.221,0.43183,34.221,0,0,0,0,7.5369e-5,0.0059727,43.796,-120.65,9.8008,80.634,0,0,0,34.973,8.6879,54.258,0.10335,NaN,2.5087,NaN,0.0079315,567917,1539.6,4.2271e-4,0.73607,0.0073055,0.54002,0.07604,0.12001,NaN,NaN,NaN,NaN,NaN,NaN,NaN,NaN,4.5459e-5,0.1397,0.015328,89.99,0,NaN,5.965,857.26,334.91,2e-3,0.025721
0.036,4.7144e-6,0.50028,36.738,0.50028,36.738,0,0,0,0,8.7314e-5,0.006412,43.796,-120.65,9.8008,79.201,0,0,0,34.972,8.6869,54.257,0.10335,NaN,2.5087,NaN,0.0079798,571380,1627.6,6.4458e-4,0.73538,0.011005,0.53933,0.07604,0.12001,NaN,NaN,NaN,NaN,NaN,NaN,NaN,NaN,5.2664e-5,0.1397,0.015328,89.99,0,NaN,5.965,857.26,334.91,2e-3,0.02757
0.038,5.7884e-6,0.57375,39.341,0.57375,39.341,0,0,0,0,1.0014e-4,0.0068663,43.796,-120.65,9.8008,77.682,0,0,0,34.971,8.6859,54.257,0.10335,NaN,2.5086,NaN,0.0080363,575425,1718.6,9.5231e-4,0.73458,0.016032,0.53853,0.07604,0.12001,NaN,NaN,NaN,NaN,NaN,NaN,NaN,NaN,6.0399e-5,0.1397,0.015328,89.99,0,NaN,5.965,857.26,334.91,2e-3,0.029156
0.04,7.0146e-6,0.65244,42.46,0.65244,42.46,0,0,0,0,1.1387e-4,0.0074107,43.796,-120.65,9.8008,76.077,0,0,0,34.97,8.6845,54.256,0.10335,NaN,2.5086,NaN,0.0081021,580136,1827.6,0.0013694,0.73366,0.02268,0.53761,0.07604,0.12001,NaN,NaN,NaN,NaN,NaN,NaN,NaN,NaN,6.8682e-5,0.1397,0.015328,89.99,0,NaN,5.965,857.26,334.91,2e-3,0.030263
0.042,8.4044e-6,0.73736,45.667,0.73736,45.667,0,0,0,0,1.2869e-4,0.0079704,43.796,-120.65,9.8008,74.375,0,0,0,34.968,8.6824,54.255,0.10334,NaN,2.5086,NaN,0.0081791,585651,1939.6,0.0019297,0.7326,0.031362,0.53655,0.07604,0.12001,NaN,NaN,NaN,NaN,NaN,NaN,NaN,NaN,7.7622e-5,0.1397,0.015328,89.99,0,NaN,5.9649,857.26,334.91,2e-3,0.031116
0.044,9.9704e-6,0.82871,48.875,0.82871,48.875,0,0,0,0,1.4464e-4,0.0085303,43.796,-120.65,9.8008,72.578,0,0,0,34.965,8.6798,54.254,0.10334,NaN,2.5085,NaN,0.008269,592084,2051.6,0.0026692,0.73137,0.042442,0.53532,0.07604,0.12001,NaN,NaN,NaN,NaN,NaN,NaN,NaN,NaN,8.7238e-5,0.1397,0.015328,89.99,0,NaN,5.9649,857.26,334.91,2e-3,0.031961
0.046,1.1726e-5,0.92646,52.083,0.92646,52.083,0,0,0,0,1.617e-4,0.0090902,43.796,-120.65,9.8008,70.698,0,0,0,34.962,8.6772,54.252,0.10334,NaN,2.5085,NaN,0.0083731,599538,2163.6,0.0036274,0.72997,0.056252,0.53392,0.07604,0.12001,NaN,NaN,NaN,NaN,NaN,NaN,NaN,NaN,9.7529e-5,0.1397,0.015328,89.99,0,NaN,5.9649,857.26,334.91,2e-3,0.03289
0.048,1.3683e-5,1.0306,55.292,1.0306,55.292,0,0,0,0,1.7988e-4,0.0096502,43.796,-120.65,9.8008,68.746,0,0,0,34.96,8.6746,54.251,0.10334,NaN,2.5084,NaN,0.0084929,608116,2275.6,0.0048476,0.72839,0.073068,0.53234,0.07604,0.12001,NaN,NaN,NaN,NaN,NaN,NaN,NaN,NaN,1.085e-4,0.1397,0.015328,89.99,0,NaN,5.9649,857.26,334.91,2e-3,0.033725
0.05,1.5855e-5,1.1412,58.501,1.1412,58.501,0,0,0,0,1.9918e-4,0.01021,43.796,-120.65,9.8008,66.733,0,0,0,34.957,8.672,54.249,0.10333,NaN,2.5084,NaN,0.0086298,617922,2387.7,0.0063769,0.72662,0.093093,0.53057,0.076041,0.12001,NaN,NaN,NaN,NaN,NaN,NaN,NaN,NaN,1.2014e-4,0.1397,0.015328,89.99,0,NaN,5.9649,857.26,334.91,2e-3,0.034542
0.052,1.8254e-5,1.2582,61.711,1.2582,61.711,0,0,0,0,2.196e-4,0.010771,43.796,-120.65,9.8008,64.658,0,0,0,34.955,8.6694,54.248,0.10333,NaN,2.5083,NaN,0.0087807,628721,2499.7,0.0082694,0.72471,0.11661,0.52866,0.076041,0.12001,NaN,NaN,NaN,NaN,NaN,NaN,NaN,NaN,1.3245e-4,0.1397,0.015328,89.99,0,NaN,5.9649,857.26,334.91,2e-3,0.035335
# Event LIFTOFF occurred at t=0.054 seconds
0.054,2.0894e-5,1.3817,64.921,1.3817,64.921,0,0,0,0,2.4115e-4,0.011331,43.796,-120.65,9.8008,62.547,0,0,0,34.952,8.6668,54.247,0.10333,NaN,2.5083,NaN,0.0089514,640947,2611.7,0.010575,0.7226,0.14349,0.52655,0.076041,0.12001,NaN,NaN,NaN,NaN,NaN,NaN,NaN,NaN,1.4545e-4,0.1397,0.015328,89.99,0,NaN,5.9649,857.26,334.91,2e-3,0.036206
0.056,2.3787e-5,1.5115,68.131,1.5115,68.131,0,0,0,0,2.6381e-4,0.011891,43.796,-120.65,9.8008,60.412,0,0,0,34.949,8.6642,54.245,0.10332,NaN,2.5082,NaN,0.0091433,654688,2723.7,0.013347,0.72029,0.17358,0.52424,0.076041,0.12001,NaN,NaN,NaN,NaN,NaN,NaN,NaN,NaN,1.5912e-4,0.1397,0.015328,89.99,0,NaN,5.9648,857.26,334.91,2e-3,0.037034
0.058,2.6946e-5,1.6478,70.999,1.6478,70.999,0,0,0,0,2.8759e-4,0.012392,43.796,-120.65,9.8008,58.269,0,0,0,34.947,8.6616,54.244,0.10332,NaN,2.5082,NaN,0.0093574,670020,2823.7,0.01664,0.71779,0.20661,0.52173,0.076041,0.12001,NaN,NaN,NaN,NaN,NaN,NaN,NaN,NaN,1.7346e-4,0.1397,0.015328,89.99,0,NaN,5.9648,857.26,334.91,2e-3,0.038034
0.06,3.0384e-5,1.7898,71.804,1.7898,71.804,5.303e-9,0,5.303e-9,0,3.1238e-4,0.012532,43.796,-120.65,9.8008,56.138,0,0,0,34.944,8.6588,54.242,0.10332,NaN,2.5081,NaN,0.0095936,686930,2851.6,0.020488,0.71511,0.24202,0.51906,0.076041,0.12001,NaN,NaN,NaN,NaN,NaN,NaN,NaN,NaN,1.8841e-4,0.1397,0.015328,89.99,0,NaN,5.9648,857.26,334.91,2e-3,0.038818
0.062,3.4107e-5,1.9334,72.268,1.9334,72.268,5.9528e-9,0,5.9528e-9,0,3.3745e-4,0.012613,43.796,-120.65,9.8008,54.09,0,0,0,34.941,8.6554,54.241,0.10331,NaN,2.5081,NaN,0.0098452,704945,2867.6,0.024807,0.71235,0.27825,0.5163,0.076041,0.12001,NaN,NaN,NaN,NaN,NaN,NaN,NaN,NaN,2.0353e-4,0.1397,0.015328,89.99,0,NaN,5.9648,857.26,334.91,2e-3,0.039602
0.064,3.8119e-5,2.078,72.732,2.078,72.732,6.653e-9,0,6.653e-9,0,3.6267e-4,0.012694,43.796,-120.65,9.8008,52.135,0,0,0,34.937,8.6518,54.239,0.10331,NaN,2.508,NaN,0.01011,723937,2883.5,0.02958,0.70955,0.31461,0.51349,0.076041,0.12001,NaN,NaN,NaN,NaN,NaN,NaN,NaN,NaN,2.1875e-4,0.1397,0.015328,89.99,0,NaN,5.9648,857.26,334.91,2e-3,0.040379
0.066,4.242e-5,2.2234,73.196,2.2234,73.196,7.4037e-9,0,7.4037e-9,0,3.8806e-4,0.012775,43.796,-120.65,9.8008,50.269,0,0,0,34.934,8.6482,54.237,0.1033,NaN,2.5079,NaN,0.010389,743856,2899.4,0.034805,0.7067,0.35062,0.51065,0.076042,0.12001,NaN,NaN,NaN,NaN,NaN,NaN,NaN,NaN,2.3406e-4,0.1397,0.015328,89.99,0,NaN,5.9647,857.26,334.91,2e-3,0.041156
0.068,4.7013e-5,2.3699,73.66,2.3699,73.66,8.2054e-9,0,8.2054e-9,0,4.1362e-4,0.012856,43.796,-120.65,9.8008,48.491,0,0,0,34.93,8.6446,54.235,0.1033,NaN,2.5079,NaN,0.010679,764653,2915.3,0.04048,0.70384,0.38591,0.50778,0.076042,0.12001,NaN,NaN,NaN,NaN,NaN,NaN,NaN,NaN,2.4947e-4,0.1397,0.015328,89.99,0,NaN,5.9647,857.26,334.91,2e-3,0.041944
0.07,5.19e-5,2.5172,74.124,2.5172,74.124,9.0583e-9,0,9.0583e-9,0,4.3933e-4,0.012937,43.796,-120.65,9.8008,46.799,0,0,0,34.926,8.641,54.233,0.10329,NaN,2.5078,NaN,0.010981,786283,2931.2,0.046601,0.70096,0.42016,0.50491,0.076042,0.12002,NaN,NaN,NaN,NaN,NaN,NaN,NaN,NaN,2.6498e-4,0.1397,0.015328,89.99,0,NaN,5.9647,857.26,334.91,2e-3,0.042715
0.072,5.7083e-5,2.6655,74.589,2.6655,74.589,9.9629e-9,0,9.9629e-9,0,4.6521e-4,0.013018,43.796,-120.65,9.8008,45.188,0,0,0,34.923,8.6374,54.231,0.10329,NaN,2.5077,NaN,0.011294,808702,2947.2,0.053163,0.69809,0.45311,0.50203,0.076042,0.12002,NaN,NaN,NaN,NaN,NaN,NaN,NaN,NaN,2.8059e-4,0.1397,0.015328,89.99,0,NaN,5.9646,857.25,334.91,2e-3,0.043487
0.074,6.2563e-5,2.8146,75.053,2.8146,75.053,1.0919e-8,0,1.0919e-8,0,4.9125e-4,0.013099,43.796,-120.65,9.8008,43.656,0,0,0,34.919,8.6338,54.229,0.10329,NaN,2.5076,NaN,0.011618,831869,2963.1,0.060159,0.69523,0.48458,0.49917,0.076042,0.12002,NaN,NaN,NaN,NaN,NaN,NaN,NaN,NaN,2.963e-4,0.1397,0.015328,89.99,0,NaN,5.9646,857.25,334.91,2e-3,0.044263
0.076,6.8343e-5,2.9648,75.517,2.9648,75.517,1.1928e-8,0,1.1928e-8,0,5.1745e-4,0.01318,43.796,-120.65,9.8008,42.199,0,0,0,34.915,8.6302,54.227,0.10328,NaN,2.5076,NaN,0.011951,855746,2979,0.067583,0.69239,0.51443,0.49633,0.076043,0.12002,NaN,NaN,NaN,NaN,NaN,NaN,NaN,NaN,3.121e-4,0.1397,0.015328,89.99,0,NaN,5.9646,857.25,334.91,2e-3,0.045038
0.078,7.4423e-5,3.1158,75.982,3.1158,75.982,1.2989e-8,0,1.2989e-8,0,5.4381e-4,0.013261,43.796,-120.65,9.8008,40.814,0,0,0,34.912,8.6266,54.225,0.10328,NaN,2.5075,NaN,0.012294,880295,2994.9,0.075429,0.68957,0.54257,0.49351,0.076043,0.12002,NaN,NaN,NaN,NaN,NaN,NaN,NaN,NaN,3.28e-4,0.1397,0.015328,89.99,0,NaN,5.9645,857.25,334.91,2e-3,0.045949
0.08,8.0807e-5,3.2678,76.447,3.2678,76.447,1.4103e-8,0,1.4103e-8,0,5.7034e-4,0.013342,43.796,-120.65,9.8008,39.496,0,0,0,34.908,8.623,54.223,0.10327,NaN,2.5074,NaN,0.012646,905485,3010.8,0.083691,0.68679,0.56898,0.49073,0.076043,0.12002,NaN,NaN,NaN,NaN,NaN,NaN,NaN,NaN,3.44e-4,0.1397,0.015328,89.99,0,NaN,5.9645,857.25,334.91,2e-3,0.046734
0.082,8.7495e-5,3.4207,76.911,3.4207,76.911,1.5271e-8,0,1.5271e-8,0,5.9702e-4,0.013424,43.796,-120.65,9.8008,38.243,0,0,0,34.905,8.6194,54.221,0.10327,NaN,2.5074,NaN,0.013006,931283,3026.8,0.092362,0.68404,0.59362,0.48798,0.076043,0.12002,NaN,NaN,NaN,NaN,NaN,NaN,NaN,NaN,3.601e-4,0.1397,0.015328,89.99,0,NaN,5.9644,857.25,334.91,2e-3,0.04751
0.084,9.449e-5,3.5745,77.376,3.5745,77.376,1.6492e-8,0,1.6492e-8,0,6.2387e-4,0.013505,43.796,-120.65,9.8008,37.05,0,0,0,34.901,8.6158,54.219,0.10326,NaN,2.5073,NaN,0.013375,957662,3042.7,0.10144,0.68133,0.61651,0.48526,0.076044,0.12002,NaN,NaN,NaN,NaN,NaN,NaN,NaN,NaN,3.7629e-4,0.1397,0.015328,89.99,0,NaN,5.9644,857.25,334.91,2e-3,0.048304
0.086,1.0179e-4,3.7293,77.841,3.7293,77.841,1.7766e-8,0,1.7766e-8,0,6.5089e-4,0.013586,43.796,-120.65,9.8008,35.916,0,0,0,34.897,8.6122,54.217,0.10326,NaN,2.5072,NaN,0.013751,984593,3058.6,0.11091,0.67866,0.6377,0.48259,0.076044,0.12002,NaN,NaN,NaN,NaN,NaN,NaN,NaN,NaN,3.9258e-4,0.1397,0.015328,89.99,0,NaN,5.9643,857.25,334.91,2e-3,0.049167
0.088,1.0941e-4,3.885,78.306,3.885,78.306,1.9095e-8,0,1.9095e-8,0,6.7806e-4,0.013667,43.796,-120.65,9.8008,34.835,0,0,0,34.894,8.6086,54.215,0.10326,NaN,2.5072,NaN,0.014134,1012053,3074.5,0.12077,0.67604,0.65723,0.47997,0.076044,0.12003,NaN,NaN,NaN,NaN,NaN,NaN,NaN,NaN,4.0897e-4,0.1397,0.015328,89.99,0,NaN,5.9643,857.25,334.91,2e-3,0.049956
0.09,1.1734e-4,4.0416,78.771,4.0416,78.771,2.0479e-8,0,2.0479e-8,0,7.054e-4,0.013748,43.796,-120.65,9.8008,33.806,0,0,0,34.89,8.605,54.213,0.10325,NaN,2.5071,NaN,0.014525,1.04e6,3090.4,0.13101,0.67346,0.67516,0.47738,0.076045,0.12003,NaN,NaN,NaN,NaN,NaN,NaN,NaN,NaN,4.2546e-4,0.1397,0.015328,89.99,0,NaN,5.9642,857.25,334.91,2e-3,0.050732
0.092,1.2558e-4,4.1992,79.236,4.1992,79.236,2.1917e-8,0,2.1917e-8,0,7.329e-4,0.013829,43.796,-120.65,9.8008,32.826,0,0,0,34.887,8.6014,54.212,0.10325,NaN,2.507,NaN,0.014922,1068471,3106.4,0.14164,0.67092,0.69156,0.47485,0.076045,0.12003,NaN,NaN,NaN,NaN,NaN,NaN,NaN,NaN,4.4205e-4,0.1397,0.015328,89.99,0,NaN,5.9642,857.25,334.91,2e-3,0.051505
0.094,1.3413e-4,4.3577,79.702,4.3577,79.702,2.3411e-8,0,2.3411e-8,0,7.6056e-4,0.013911,43.796,-120.65,9.8008,31.891,0,0,0,34.883,8.5978,54.21,0.10324,NaN,2.507,NaN,0.015326,1097387,3122.3,0.15264,0.66843,0.70651,0.47236,0.076045,0.12003,NaN,NaN,NaN,NaN,NaN,NaN,NaN,NaN,4.5873e-4,0.1397,0.015328,89.99,0,NaN,5.9641,857.25,334.91,2e-3,0.052276
0.096,1.4301e-4,4.5171,80.167,4.5171,80.167,2.496e-8,0,2.496e-8,0,7.8838e-4,0.013992,43.796,-120.65,9.8008,30.999,0,0,0,34.879,8.5942,54.208,0.10324,NaN,2.5069,NaN,0.015736,1126751,3138.2,0.16401,0.66599,0.72009,0.46991,0.076046,0.12003,NaN,NaN,NaN,NaN,NaN,NaN,NaN,NaN,4.7551e-4,0.1397,0.015328,89.99,0,NaN,5.9641,857.25,334.91,2e-3,0.053121
0.098,1.522e-4,4.6774,80.632,4.6774,80.632,2.6564e-8,0,2.6564e-8,0,8.1637e-4,0.014073,43.796,-120.65,9.8008,30.148,0,0,0,34.876,8.5906,54.206,0.10323,NaN,2.5068,NaN,0.016152,1156546,3154.1,0.17575,0.6636,0.73237,0.46752,0.076046,0.12003,NaN,NaN,NaN,NaN,NaN,NaN,NaN,NaN,4.9239e-4,0.1397,0.015328,89.99,0,NaN,5.964,857.24,334.91,2e-3,0.053906
0.1,1.6172e-4,4.8387,81.098,4.8387,81.098,2.8225e-8,0,2.8225e-8,0,8.4452e-4,0.014154,43.796,-120.65,9.8008,29.334,0,0,0,34.872,8.587,54.204,0.10323,NaN,2.5067,NaN,0.016574,1186757,3170,0.18785,0.66125,0.74345,0.46517,0.076047,0.12004,NaN,NaN,NaN,NaN,NaN,NaN,NaN,NaN,5.0937e-4,0.1397,0.015328,89.99,0,NaN,5.9639,857.24,334.91,2e-3,0.054685
0.102,1.7156e-4,5.0009,81.563,5.0009,81.563,2.9943e-8,0,2.9943e-8,0,8.7283e-4,0.014236,43.796,-120.65,9.8008,28.613,0,0,0,34.869,8.5834,54.202,0.10323,NaN,2.5067,NaN,0.017011,1218014,3186,0.20027,0.6589,0.75245,0.46282,0.076047,0.12004,NaN,NaN,NaN,NaN,NaN,NaN,NaN,NaN,5.2645e-4,0.1397,0.015328,89.99,0,NaN,5.9639,857.24,334.91,2e-3,0.055533
0.104,1.8172e-4,5.1641,82.029,5.1641,82.029,3.1717e-8,0,3.1717e-8,0,9.013e-4,0.014317,43.796,-120.65,9.8008,27.923,0,0,0,34.865,8.5798,54.2,0.10322,NaN,2.5066,NaN,0.017452,1249629,3201.9,0.21306,0.65661,0.76051,0.46052,0.076048,0.12004,NaN,NaN,NaN,NaN,NaN,NaN,NaN,NaN,5.4362e-4,0.1397,0.015328,89.99,0,NaN,5.9638,857.24,334.91,2e-3,0.05631
0.106,1.9222e-4,5.3281,82.495,5.3281,82.495,3.3548e-8,0,3.3548e-8,0,9.2994e-4,0.014398,43.796,-120.65,9.8008,27.264,0,0,0,34.861,8.5762,54.198,0.10322,NaN,2.5065,NaN,0.017899,1281594,3217.8,0.22621,0.65436,0.76769,0.45827,0.076048,0.12004,NaN,NaN,NaN,NaN,NaN,NaN,NaN,NaN,5.6089e-4,0.1397,0.015328,89.99,0,NaN,5.9638,857.24,334.91,2e-3,0.057084
0.108,2.0304e-4,5.4932,82.961,5.4932,82.961,3.5437e-8,0,3.5437e-8,0,9.5874e-4,0.014479,43.796,-120.65,9.8008,26.632,0,0,0,34.858,8.5726,54.196,0.10321,NaN,2.5065,NaN,0.01835,1313898,3233.7,0.23973,0.65216,0.77405,0.45607,0.076049,0.12004,NaN,NaN,NaN,NaN,NaN,NaN,NaN,NaN,5.7826e-4,0.1397,0.015328,89.99,0,NaN,5.9637,857.24,334.91,2e-3,0.057876
0.11,2.1419e-4,5.6591,83.427,5.6591,83.427,3.7383e-8,0,3.7383e-8,0,9.877e-4,0.014561,43.796,-120.65,9.8008,26.028,0,0,0,34.854,8.569,54.194,0.10321,NaN,2.5064,NaN,0.018806,1346532,3249.6,0.25361,0.65001,0.77967,0.45391,0.076049,0.12005,NaN,NaN,NaN,NaN,NaN,NaN,NaN,NaN,5.9573e-4,0.1397,0.015328,89.99,0,NaN,5.9636,857.24,334.91,2e-3,0.058678
0.112,2.2567e-4,5.826,83.893,5.826,83.893,3.9387e-8,0,3.9387e-8,0,0.0010168,0.014642,43.796,-120.65,9.8008,25.448,0,0,0,34.851,8.5654,54.192,0.1032,NaN,2.5063,NaN,0.019266,1379490,3265.5,0.26786,0.6479,0.78458,0.45181,0.07605,0.12005,NaN,NaN,NaN,NaN,NaN,NaN,NaN,NaN,6.133e-4,0.1397,0.015328,89.99,0,NaN,5.9635,857.24,334.91,2e-3,0.059457
0.114,2.3749e-4,5.9938,84.359,5.9938,84.359,4.145e-8,0,4.145e-8,0,0.0010461,0.014723,43.796,-120.65,9.8008,24.892,0,0,0,34.847,8.5618,54.19,0.1032,NaN,2.5063,NaN,0.019731,1412762,3281.5,0.28247,0.64584,0.78886,0.44974,0.07605,0.12005,NaN,NaN,NaN,NaN,NaN,NaN,NaN,NaN,6.3096e-4,0.1397,0.015328,89.99,0,NaN,5.9635,857.24,334.91,2e-3,0.060229
0.116,2.4965e-4,6.1625,84.825,6.1625,84.825,4.3572e-8,0,4.3572e-8,0,0.0010756,0.014805,43.796,-120.65,9.8008,24.359,0,0,0,34.843,8.5582,54.188,0.1032,NaN,2.5062,NaN,0.0202,1446343,3297.4,0.29744,0.64383,0.79254,0.44772,0.076051,0.12005,NaN,NaN,NaN,NaN,NaN,NaN,NaN,NaN,6.4873e-4,0.1397,0.015328,89.99,0,NaN,5.9634,857.23,334.91,2e-3,0.061053
0.118,2.6214e-4,6.3322,85.291,6.3322,85.291,4.5753e-8,0,4.5753e-8,0,0.0011052,0.014886,43.796,-120.65,9.8008,23.846,0,0,0,34.84,8.5546,54.186,0.10319,NaN,2.5061,NaN,0.020673,1480226,3313.3,0.31277,0.64185,0.79568,0.44574,0.076051,0.12006,NaN,NaN,NaN,NaN,NaN,NaN,NaN,NaN,6.6659e-4,0.1397,0.015328,89.99,0,NaN,5.9633,857.23,334.91,2e-3,0.061838
0.12,2.7498e-4,6.5028,85.758,6.5028,85.758,4.7993e-8,0,4.7993e-8,0,0.0011349,0.014968,43.796,-120.65,9.8008,23.354,0,0,0,34.836,8.551,54.184,0.10319,NaN,2.5061,NaN,0.021151,1514405,3329.2,0.32847,0.63992,0.79832,0.44381,0.076052,0.12006,NaN,NaN,NaN,NaN,NaN,NaN,NaN,NaN,6.8455e-4,0.1397,0.015328,89.99,0,NaN,5.9632,857.23,334.91,2e-3,0.062613
0.122,2.8816e-4,6.6743,86.224,6.6743,86.224,5.0293e-8,0,5.0293e-8,0,0.0011649,0.015049,43.796,-120.65,9.8008,22.881,0,0,0,34.833,8.5474,54.183,0.10318,NaN,2.506,NaN,0.021632,1548875,3345.1,0.34453,0.63802,0.8005,0.44191,0.076053,0.12006,NaN,NaN,NaN,NaN,NaN,NaN,NaN,NaN,7.026e-4,0.1397,0.015328,89.99,0,NaN,5.9631,857.23,334.91,2e-3,0.063388
0.124,3.0168e-4,6.8468,86.691,6.8468,86.691,5.2653e-8,0,5.2653e-8,0,0.001195,0.01513,43.796,-120.65,9.8008,22.425,0,0,0,34.829,8.5438,54.181,0.10318,NaN,2.5059,NaN,0.022117,1583629,3361.1,0.36095,0.63617,0.80225,0.44005,0.076053,0.12006,NaN,NaN,NaN,NaN,NaN,NaN,NaN,NaN,7.2076e-4,0.1397,0.015328,89.99,0,NaN,5.963,857.23,334.91,2e-3,0.064163
0.126,3.1554e-4,7.0201,87.157,7.0201,87.157,5.5073e-8,0,5.5073e-8,0,0.0012252,0.015212,43.796,-120.65,9.8008,21.986,0,0,0,34.825,8.5402,54.179,0.10317,NaN,2.5058,NaN,0.022607,1618665,3377,0.37774,0.63435,0.80361,0.43823,0.076054,0.12007,NaN,NaN,NaN,NaN,NaN,NaN,NaN,NaN,7.3901e-4,0.1397,0.015328,89.99,0,NaN,5.9629,857.23,334.91,2e-3,0.065133
0.128,3.2976e-4,7.1945,87.624,7.1945,87.624,5.7554e-8,0,5.7554e-8,0,0.0012557,0.015293,43.796,-120.65,9.8008,21.564,0,0,0,34.822,8.5366,54.177,0.10317,NaN,2.5058,NaN,0.0231,1653977,3392.9,0.39489,0.63256,0.80462,0.43644,0.076055,0.12007,NaN,NaN,NaN,NaN,NaN,NaN,NaN,NaN,7.5736e-4,0.1397,0.015328,89.99,0,NaN,5.9629,857.23,334.91,2e-3,0.065947
0.13,3.4432e-4,7.3697,88.091,7.3697,88.091,6.0096e-8,0,6.0096e-8,0,0.0012863,0.015375,43.796,-120.65,9.8008,21.156,0,0,0,34.818,8.533,54.175,0.10316,NaN,2.5057,NaN,0.023597,1689561,3408.8,0.41242,0.63082,0.8053,0.43469,0.076055,0.12007,NaN,NaN,NaN,NaN,NaN,NaN,NaN,NaN,7.7581e-4,0.1397,0.015328,89.99,0,NaN,5.9628,857.22,334.91,2e-3,0.066723
0.132,3.5924e-4,7.5459,88.558,7.5459,88.558,6.2699e-8,0,6.2699e-8,0,0.001317,0.015456,43.796,-120.65,9.8008,20.764,0,0,0,34.815,8.5294,54.173,0.10316,NaN,2.5056,NaN,0.024098,1725413,3424.7,0.4303,0.6291,0.80567,0.43297,0.076056,0.12008,NaN,NaN,NaN,NaN,NaN,NaN,NaN,NaN,7.9436e-4,0.1397,0.015328,89.99,0,NaN,5.9627,857.22,334.91,2e-3,0.0675
0.134,3.7451e-4,7.7231,89.025,7.7231,89.025,6.5364e-8,0,6.5364e-8,0,0.0013479,0.015538,43.796,-120.65,9.8008,20.385,0,0,0,34.811,8.5258,54.171,0.10316,NaN,2.5056,NaN,0.024602,1761530,3440.7,0.44856,0.62742,0.80577,0.43129,0.076057,0.12008,NaN,NaN,NaN,NaN,NaN,NaN,NaN,NaN,8.1301e-4,0.1397,0.015328,89.99,0,NaN,5.9626,857.22,334.91,2e-3,0.068276
0.136,3.9013e-4,7.9011,89.492,7.9011,89.492,6.8091e-8,0,6.8091e-8,0,0.001379,0.015619,43.796,-120.65,9.8008,20.019,0,0,0,34.807,8.5222,54.169,0.10315,NaN,2.5055,NaN,0.02511,1797909,3456.6,0.46719,0.62578,0.80562,0.42964,0.076058,0.12008,NaN,NaN,NaN,NaN,NaN,NaN,NaN,NaN,8.3175e-4,0.1397,0.015328,89.99,0,NaN,5.9625,857.22,334.91,2e-3,0.06905
0.138,4.0611e-4,8.0801,89.959,8.0801,89.959,7.088e-8,0,7.088e-8,0,0.0014103,0.015701,43.796,-120.65,9.8008,19.665,0,0,0,34.804,8.5186,54.167,0.10315,NaN,2.5054,NaN,0.025622,1834546,3472.5,0.48619,0.62416,0.80523,0.42801,0.076058,0.12009,NaN,NaN,NaN,NaN,NaN,NaN,NaN,NaN,8.506e-4,0.1397,0.015328,89.99,0,NaN,5.9624,857.22,334.91,2e-3,0.070167
0.14,4.2245e-4,8.2601,90.343,8.2601,90.343,7.3732e-8,0,7.3732e-8,0,0.0014417,0.015768,43.796,-120.65,9.8008,19.323,0,0,0,34.8,8.515,54.165,0.10314,NaN,2.5054,NaN,0.026137,1871438,3485.5,0.50557,0.62257,0.80463,0.42642,0.076059,0.12009,NaN,NaN,NaN,NaN,NaN,NaN,NaN,NaN,8.6954e-4,0.1397,0.015328,89.99,0,NaN,5.9623,857.22,334.91,2e-3,0.070969
0.142,4.3915e-4,8.4408,90.228,8.4408,90.228,7.6647e-8,0,7.6647e-8,0,0.0014732,0.015748,43.796,-120.65,9.8008,18.993,0,0,0,34.797,8.5113,54.163,0.10314,NaN,2.5053,NaN,0.026656,1908550,3481.2,0.5253,0.62101,0.80384,0.42486,0.07606,0.12009,NaN,NaN,NaN,NaN,NaN,NaN,NaN,NaN,8.8856e-4,0.1397,0.015328,89.99,0,NaN,5.9621,857.21,334.91,2e-3,0.071744
0.144,4.5622e-4,8.6212,90.031,8.6213,90.031,7.9625e-8,0,7.9625e-8,0,0.0015047,0.015713,43.796,-120.65,9.8008,18.676,0,0,0,34.793,8.5075,54.161,0.10313,NaN,2.5052,NaN,0.027174,1945676,3474,0.54529,0.6195,0.80288,0.42334,0.076061,0.1201,NaN,NaN,NaN,NaN,NaN,NaN,NaN,NaN,9.0756e-4,0.1397,0.015328,89.99,0,NaN,5.962,857.21,334.91,2e-3,0.072518
0.146,4.7364e-4,8.8013,89.833,8.8013,89.833,8.2666e-8,0,8.2666e-8,0,0.0015361,0.015679,43.796,-120.65,9.8008,18.372,0,0,0,34.789,8.5037,54.159,0.10313,NaN,2.5051,NaN,0.027692,1982779,3466.7,0.5655,0.61802,0.80176,0.42185,0.076062,0.1201,NaN,NaN,NaN,NaN,NaN,NaN,NaN,NaN,9.2652e-4,0.1397,0.015328,89.99,0,NaN,5.9619,857.21,334.91,2e-3,0.073297
0.148,4.9142e-4,8.981,89.636,8.981,89.636,8.5769e-8,0,8.5769e-8,0,0.0015675,0.015644,43.796,-120.65,9.8008,18.079,0,0,0,34.785,8.4999,54.157,0.10313,NaN,2.5051,NaN,0.02821,2019856,3459.5,0.58593,0.61657,0.80051,0.4204,0.076063,0.1201,NaN,NaN,NaN,NaN,NaN,NaN,NaN,NaN,9.4543e-4,0.1397,0.015328,89.99,0,NaN,5.9618,857.21,334.91,2e-3,0.074082
0.15,5.0956e-4,9.1603,89.438,9.1603,89.438,8.8935e-8,0,8.8935e-8,0,0.0015988,0.01561,43.796,-120.65,9.8008,17.798,0,0,0,34.781,8.4961,54.155,0.10312,NaN,2.505,NaN,0.028728,2056903,3452.3,0.60658,0.61516,0.79914,0.41899,0.076063,0.12011,NaN,NaN,NaN,NaN,NaN,NaN,NaN,NaN,9.643e-4,0.1397,0.015328,89.99,0,NaN,5.9617,857.21,334.91,2e-3,0.074861
0.152,5.2806e-4,9.3392,89.241,9.3392,89.241,9.2164e-8,0,9.2164e-8,0,0.00163,0.015575,43.796,-120.65,9.8008,17.497,0,0,0,34.778,8.4923,54.153,0.10312,NaN,2.5049,NaN,0.02924,2093570,3445.1,0.62728,0.6138,0.79772,0.41762,0.076064,0.12011,NaN,NaN,NaN,NaN,NaN,NaN,NaN,NaN,9.8314e-4,0.1397,0.015328,89.99,0,NaN,5.9616,857.2,334.91,2e-3,0.076341
0.154,5.4692e-4,9.5177,89.043,9.5177,89.043,9.5455e-8,0,9.5455e-8,0,0.0016612,0.015541,43.796,-120.65,9.8008,17.208,0,0,0,34.774,8.4885,54.151,0.10311,NaN,2.5048,NaN,0.029752,2130212,3437.8,0.64817,0.61247,0.79617,0.41628,0.076065,0.12012,NaN,NaN,NaN,NaN,NaN,NaN,NaN,NaN,0.0010019,0.1397,0.015328,89.99,0,NaN,5.9614,857.2,334.91,2e-3,0.077316
0.156,5.6613e-4,9.6958,88.846,9.6958,88.846,9.8809e-8,0,9.8809e-8,0,0.0016922,0.015507,43.796,-120.65,9.8008,16.929,0,0,0,34.77,8.4847,54.149,0.10311,NaN,2.5048,NaN,0.030263,2166825,3430.6,0.66924,0.61116,0.7945,0.41498,0.076066,0.12012,NaN,NaN,NaN,NaN,NaN,NaN,NaN,NaN,0.0010207,0.1397,0.015328,89.99,0,NaN,5.9613,857.2,334.91,2e-3,0.078132
0.158,5.857e-4,9.8735,88.648,9.8735,88.648,1.0222e-7,0,1.0222e-7,0,0.0017233,0.015472,43.796,-120.65,9.8008,16.659,0,0,0,34.766,8.4809,54.147,0.1031,NaN,2.5047,NaN,0.030774,2203407,3423.4,0.6904,0.60989,0.79264,0.4137,0.076067,0.12012,NaN,NaN,NaN,NaN,NaN,NaN,NaN,NaN,0.0010394,0.1397,0.015328,89.99,0,NaN,5.9612,857.2,334.91,2e-3,0.078908
0.16,6.0563e-4,10.051,88.45,10.051,88.45,1.057e-7,0,1.057e-7,0,0.0017542,0.015438,43.796,-120.65,9.8008,16.4,0,0,0,34.762,8.4771,54.145,0.1031,NaN,2.5046,NaN,0.031285,2.24e6,3416.2,0.71164,0.60864,0.79057,0.41245,0.076068,0.12013,NaN,NaN,NaN,NaN,NaN,NaN,NaN,NaN,0.0010581,0.1397,0.015328,89.99,0,NaN,5.9611,857.2,334.91,2e-3,0.07991
0.162,6.259e-4,10.228,88.253,10.228,88.253,1.0924e-7,0,1.0924e-7,0,0.0017851,0.015403,43.796,-120.65,9.8008,16.149,0,0,0,34.759,8.4733,54.143,0.10309,NaN,2.5045,NaN,0.031795,2276466,3408.9,0.73294,0.60743,0.78833,0.41123,0.076069,0.12013,NaN,NaN,NaN,NaN,NaN,NaN,NaN,NaN,0.0010767,0.1397,0.015328,89.99,0,NaN,5.9609,857.19,334.91,2e-3,0.080889
0.164,6.4654e-4,10.404,88.055,10.404,88.055,1.1284e-7,0,1.1284e-7,0,0.0018159,0.015368,43.796,-120.65,9.8008,15.906,0,0,0,34.755,8.4695,54.141,0.10309,NaN,2.5045,NaN,0.032304,2312938,3401.7,0.75433,0.60623,0.78594,0.41003,0.07607,0.12014,NaN,NaN,NaN,NaN,NaN,NaN,NaN,NaN,0.0010953,0.1397,0.015328,89.99,0,NaN,5.9608,857.19,334.91,2e-3,0.082177
0.166,6.6752e-4,10.58,87.857,10.58,87.857,1.165e-7,0,1.165e-7,0,0.0018466,0.015334,43.796,-120.65,9.8008,15.672,0,0,0,34.751,8.4657,54.139,0.10308,NaN,2.5044,NaN,0.032813,2349368,3394.5,0.7758,0.60507,0.78344,0.40886,0.076071,0.12014,NaN,NaN,NaN,NaN,NaN,NaN,NaN,NaN,0.0011138,0.1397,0.015328,89.99,0,NaN,5.9607,857.19,334.91,2e-3,0.08305
0.168,6.8886e-4,10.756,87.659,10.756,87.659,1.2023e-7,0,1.2023e-7,0,0.0018773,0.015299,43.796,-120.65,9.8008,15.445,0,0,0,34.747,8.4619,54.136,0.10308,NaN,2.5043,NaN,0.033321,2385755,3387.3,0.79735,0.60392,0.78083,0.40771,0.076072,0.12014,NaN,NaN,NaN,NaN,NaN,NaN,NaN,NaN,0.0011323,0.1397,0.015328,89.99,0,NaN,5.9605,857.19,334.91,2e-3,0.083894
0.17,7.1055e-4,10.931,87.461,10.931,87.461,1.2401e-7,0,1.2401e-7,0,0.0019079,0.015265,43.796,-120.65,9.8008,15.226,0,0,0,34.743,8.4581,54.134,0.10308,NaN,2.5043,NaN,0.033829,2422096,3380,0.81901,0.6028,0.77815,0.40658,0.076073,0.12015,NaN,NaN,NaN,NaN,NaN,NaN,NaN,NaN,0.0011508,0.1397,0.015328,89.99,0,NaN,5.9604,857.19,334.91,2e-3,0.084853
0.172,7.3258e-4,11.106,87.263,11.106,87.263,1.2786e-7,0,1.2786e-7,0,0.0019384,0.01523,43.796,-120.65,9.8008,15.014,0,0,0,34.74,8.4543,54.132,0.10307,NaN,2.5042,NaN,0.034336,2458389,3372.8,0.84076,0.60171,0.7754,0.40548,0.076074,0.12015,NaN,NaN,NaN,NaN,NaN,NaN,NaN,NaN,0.0011692,0.1397,0.015328,89.99,0,NaN,5.9602,857.18,334.91,2e-3,0.086017
0.174,7.5497e-4,11.281,87.065,11.281,87.065,1.3177e-7,0,1.3177e-7,0,0.0019689,0.015196,43.796,-120.65,9.8008,14.808,0,0,0,34.736,8.4505,54.13,0.10307,NaN,2.5041,NaN,0.034842,2494633,3365.6,0.86262,0.60063,0.77261,0.4044,0.076075,0.12016,NaN,NaN,NaN,NaN,NaN,NaN,NaN,NaN,0.0011875,0.1397,0.015328,89.99,0,NaN,5.9601,857.18,334.91,2e-3,0.087142
0.176,7.7771e-4,11.455,86.867,11.455,86.867,1.3574e-7,0,1.3574e-7,0,0.0019993,0.015161,43.796,-120.65,9.8008,14.609,0,0,0,34.732,8.4467,54.128,0.10306,NaN,2.504,NaN,0.035348,2530827,3358.4,0.88458,0.59958,0.76978,0.40334,0.076076,0.12016,NaN,NaN,NaN,NaN,NaN,NaN,NaN,NaN,0.0012059,0.1397,0.015328,89.99,0,NaN,5.9599,857.18,334.91,2e-3,0.088227
0.178,8.0079e-4,11.629,86.669,11.629,86.669,1.3976e-7,0,1.3976e-7,0,0.0020296,0.015127,43.796,-120.65,9.8008,14.416,0,0,0,34.728,8.4429,54.126,0.10306,NaN,2.504,NaN,0.035853,2566967,3351.1,0.90665,0.59855,0.76693,0.4023,0.076078,0.12017,NaN,NaN,NaN,NaN,NaN,NaN,NaN,NaN,0.0012242,0.1397,0.015328,89.99,0,NaN,5.9598,857.18,334.91,2e-3,0.089271
0.18,8.2422e-4,11.802,86.471,11.802,86.471,1.4385e-7,0,1.4385e-7,0,0.0020599,0.015092,43.796,-120.65,9.8008,14.229,0,0,0,34.724,8.4391,54.124,0.10305,NaN,2.5039,NaN,0.036357,2603054,3343.9,0.92883,0.59754,0.76406,0.40129,0.076079,0.12017,NaN,NaN,NaN,NaN,NaN,NaN,NaN,NaN,0.0012424,0.1397,0.015328,89.99,0,NaN,5.9596,857.17,334.91,2e-3,0.090711
0.182,8.48e-4,11.975,86.272,11.975,86.272,1.48e-7,0,1.48e-7,0,0.0020901,0.015057,43.796,-120.65,9.8008,14.047,0,0,0,34.721,8.4353,54.122,0.10305,NaN,2.5038,NaN,0.03686,2639085,3336.7,0.95113,0.59654,0.76118,0.40029,0.07608,0.12018,NaN,NaN,NaN,NaN,NaN,NaN,NaN,NaN,0.0012606,0.1397,0.015328,89.99,0,NaN,5.9595,857.17,334.91,2e-3,0.092209
0.184,8.7212e-4,12.148,86.074,12.148,86.074,1.5221e-7,0,1.5221e-7,0,0.0021202,0.015023,43.796,-120.65,9.8008,13.871,0,0,0,34.717,8.4315,54.12,0.10304,NaN,2.5037,NaN,0.037363,2675060,3329.4,0.97355,0.59557,0.7583,0.39931,0.076081,0.12018,NaN,NaN,NaN,NaN,NaN,NaN,NaN,NaN,0.0012788,0.1397,0.015328,89.99,0,NaN,5.9593,857.17,334.91,2e-3,0.093784
0.186,8.9659e-4,12.32,85.876,12.32,85.876,1.5648e-7,0,1.5648e-7,0,0.0021502,0.014988,43.796,-120.65,9.8008,13.699,0,0,0,34.713,8.4277,54.118,0.10304,NaN,2.5037,NaN,0.037864,2710976,3322.2,0.99608,0.59461,0.75543,0.39834,0.076082,0.12019,NaN,NaN,NaN,NaN,NaN,NaN,NaN,NaN,0.0012969,0.1397,0.015328,89.99,0,NaN,5.9592,857.17,334.91,2e-3,0.09531
0.188,9.214e-4,12.492,85.678,12.492,85.678,1.6081e-7,0,1.6081e-7,0,0.0021802,0.014954,43.796,-120.65,9.8008,13.533,0,0,0,34.709,8.4239,54.116,0.10303,NaN,2.5036,NaN,0.038365,2746834,3315,1.0187,0.59367,0.75257,0.3974,0.076083,0.12019,NaN,NaN,NaN,NaN,NaN,NaN,NaN,NaN,0.001315,0.1397,0.015328,89.99,0,NaN,5.959,857.16,334.91,2e-3,0.096773
0.19,9.4656e-4,12.663,85.479,12.663,85.479,1.6521e-7,0,1.6521e-7,0,0.0022101,0.014919,43.796,-120.65,9.8008,13.371,0,0,0,34.705,8.4201,54.114,0.10303,NaN,2.5035,NaN,0.038865,2782632,3307.8,1.0415,0.59275,0.74973,0.39647,0.076084,0.1202,NaN,NaN,NaN,NaN,NaN,NaN,NaN,NaN,0.001333,0.1397,0.015328,89.99,0,NaN,5.9588,857.16,334.91,2e-3,0.098412
0.192,9.7205e-4,12.834,85.281,12.834,85.281,1.6966e-7,0,1.6966e-7,0,0.00224,0.014884,43.796,-120.65,9.8008,13.214,0,0,0,34.702,8.4163,54.112,0.10302,NaN,2.5034,NaN,0.039365,2818368,3300.5,1.0644,0.59185,0.74691,0.39556,0.076086,0.1202,NaN,NaN,NaN,NaN,NaN,NaN,NaN,NaN,0.001351,0.1397,0.015328,89.99,0,NaN,5.9587,857.16,334.91,2e-3,0.099706
0.194,9.9789e-4,13.005,85.082,13.005,85.082,1.7416e-7,0,1.7416e-7,0,0.0022697,0.01485,43.796,-120.65,9.8008,13.061,0,0,0,34.698,8.4125,54.11,0.10302,NaN,2.5034,NaN,0.039863,2854042,3293.3,1.0874,0.59096,0.74411,0.39466,0.076087,0.12021,NaN,NaN,NaN,NaN,NaN,NaN,NaN,NaN,0.001369,0.1397,0.015328,89.99,0,NaN,5.9585,857.15,334.91,2e-3,0.10055
0.196,0.0010241,13.175,84.884,13.175,84.884,1.7873e-7,0,1.7873e-7,0,0.0022994,0.014815,43.796,-120.65,9.8008,12.913,0,0,0,34.694,8.4087,54.108,0.10302,NaN,2.5033,NaN,0.04036,2889653,3286.1,1.1106,0.59009,0.74133,0.39379,0.076088,0.12021,NaN,NaN,NaN,NaN,NaN,NaN,NaN,NaN,0.0013869,0.1397,0.015328,89.99,0,NaN,5.9583,857.15,334.91,2e-3,0.1021
0.198,0.0010506,13.345,84.685,13.345,84.685,1.8336e-7,0,1.8336e-7,0,0.0023291,0.01478,43.796,-120.65,9.8008,12.768,0,0,0,34.69,8.4049,54.106,0.10301,NaN,2.5032,NaN,0.040857,2925199,3278.9,1.1339,0.58923,0.73858,0.39292,0.076089,0.12022,NaN,NaN,NaN,NaN,NaN,NaN,NaN,NaN,0.0014048,0.1397,0.015328,89.99,0,NaN,5.9582,857.15,334.91,2e-3,0.10373
0.2,0.0010774,13.514,84.486,13.514,84.486,1.8805e-7,0,1.8805e-7,0,0.0023586,0.014746,43.796,-120.65,9.8008,12.627,0,0,0,34.686,8.4011,54.104,0.10301,NaN,2.5031,NaN,0.041353,2960681,3271.6,1.1573,0.58838,0.73587,0.39207,0.076091,0.12022,NaN,NaN,NaN,NaN,NaN,NaN,NaN,NaN,0.0014226,0.1397,0.015328,89.99,0,NaN,5.958,857.15,334.91,2e-3,0.10505
0.202,0.0011046,13.683,84.288,13.683,84.288,1.928e-7,0,1.928e-7,0,0.0023881,0.014711,43.796,-120.65,9.8008,12.519,0,0,0,34.683,8.3973,54.102,0.103,NaN,2.5031,NaN,0.041852,2996440,3264.4,1.182,0.58773,0.73376,0.39142,0.076092,0.12023,NaN,NaN,NaN,NaN,NaN,NaN,NaN,NaN,0.0014404,0.1397,0.015328,89.99,0,NaN,5.9578,857.14,334.91,2e-3,0.1067
0.204,0.0011322,13.852,84.089,13.852,84.089,1.976e-7,0,1.976e-7,0,0.0024175,0.014676,43.796,-120.65,9.8008,12.414,0,0,0,34.679,8.3935,54.099,0.103,NaN,2.503,NaN,0.042351,3032126,3257.2,1.208,0.58761,0.73233,0.39128,0.076093,0.12023,NaN,NaN,NaN,NaN,NaN,NaN,NaN,NaN,0.0014581,0.1397,0.015328,89.99,0,NaN,5.9576,857.14,334.91,2e-3,0.10827
0.206,0.0011601,14.02,83.89,14.02,83.89,2.0247e-7,0,2.0247e-7,0,0.0024469,0.014642,43.796,-120.65,9.8008,12.312,0,0,0,34.675,8.3897,54.097,0.10299,NaN,2.5029,NaN,0.042848,3067738,3250,1.2341,0.58749,0.73092,0.39115,0.076094,0.12024,NaN,NaN,NaN,NaN,NaN,NaN,NaN,NaN,0.0014759,0.1397,0.015328,89.99,0,NaN,5.9575,857.14,334.91,2e-3,0.10976
0.208,0.0011883,14.187,83.691,14.187,83.691,2.0739e-7,0,2.0739e-7,0,0.0024762,0.014607,43.796,-120.65,9.8008,12.213,0,0,0,34.671,8.3859,54.095,0.10299,NaN,2.5028,NaN,0.043345,3103277,3242.7,1.2605,0.58737,0.72953,0.39103,0.076096,0.12024,NaN,NaN,NaN,NaN,NaN,NaN,NaN,NaN,0.0014935,0.1397,0.015328,89.99,0,NaN,5.9573,857.13,334.91,2e-3,0.11118
0.21,0.0012168,14.355,83.492,14.355,83.492,2.1237e-7,0,2.1237e-7,0,0.0025054,0.014572,43.796,-120.65,9.8008,12.116,0,0,0,34.667,8.3821,54.093,0.10298,NaN,2.5028,NaN,0.04384,3138741,3235.5,1.287,0.58725,0.72816,0.3909,0.076097,0.12025,NaN,NaN,NaN,NaN,NaN,NaN,NaN,NaN,0.0015111,0.1397,0.015328,89.99,0,NaN,5.9571,857.13,334.91,2e-3,0.11263
0.212,0.0012457,14.522,83.293,14.522,83.293,2.1741e-7,0,2.1741e-7,0,0.0025345,0.014537,43.796,-120.65,9.8008,12.022,0,0,0,34.664,8.3783,54.091,0.10298,NaN,2.5027,NaN,0.044335,3174131,3228.3,1.3138,0.58713,0.72681,0.39078,0.076098,0.12026,NaN,NaN,NaN,NaN,NaN,NaN,NaN,NaN,0.0015287,0.1397,0.015328,89.99,0,NaN,5.9569,857.13,334.91,2e-3,0.1142
0.214,0.0012749,14.688,83.094,14.688,83.094,2.2251e-7,0,2.2251e-7,0,0.0025636,0.014503,43.796,-120.65,9.8008,11.93,0,0,0,34.66,8.3744,54.089,0.10297,NaN,2.5026,NaN,0.044828,3209445,3221.1,1.3407,0.58702,0.72548,0.39066,0.0761,0.12026,NaN,NaN,NaN,NaN,NaN,NaN,NaN,NaN,0.0015463,0.1397,0.015328,89.99,0,NaN,5.9567,857.13,334.91,2e-3,0.11525
0.216,0.0013044,14.855,82.895,14.855,82.895,2.2767e-7,0,2.2767e-7,0,0.0025926,0.014468,43.796,-120.65,9.8008,11.841,0,0,0,34.656,8.3706,54.087,0.10297,NaN,2.5026,NaN,0.04532,3244684,3213.8,1.3679,0.58691,0.72417,0.39054,0.076101,0.12027,NaN,NaN,NaN,NaN,NaN,NaN,NaN,NaN,0.0015638,0.1397,0.015328,89.99,0,NaN,5.9565,857.12,334.91,2e-3,0.11641
0.218,0.0013343,15.021,82.696,15.021,82.696,2.3288e-7,0,2.3288e-7,0,0.0026216,0.014433,43.796,-120.65,9.8008,11.753,0,0,0,34.652,8.3668,54.085,0.10297,NaN,2.5025,NaN,0.045812,3279847,3206.6,1.3952,0.5868,0.72288,0.39042,0.076102,0.12027,NaN,NaN,NaN,NaN,NaN,NaN,NaN,NaN,0.0015812,0.1397,0.015328,89.99,0,NaN,5.9563,857.12,334.91,2e-3,0.1176
0.22,0.0013645,15.186,82.497,15.186,82.497,2.3815e-7,0,2.3815e-7,0,0.0026504,0.014398,43.796,-120.65,9.8008,11.668,0,0,0,34.648,8.363,54.083,0.10296,NaN,2.5024,NaN,0.046302,3314934,3199.4,1.4227,0.58669,0.72161,0.39031,0.076104,0.12028,NaN,NaN,NaN,NaN,NaN,NaN,NaN,NaN,0.0015986,0.1397,0.015328,89.99,0,NaN,5.9561,857.12,334.91,2e-3,0.11909
0.222,0.001395,15.351,82.297,15.351,82.297,2.4348e-7,0,2.4348e-7,0,0.0026792,0.014364,43.796,-120.65,9.8008,11.585,0,0,0,34.645,8.3592,54.081,0.10296,NaN,2.5023,NaN,0.046791,3349944,3192.1,1.4504,0.58658,0.72037,0.39019,0.076105,0.12028,NaN,NaN,NaN,NaN,NaN,NaN,NaN,NaN,0.001616,0.1397,0.015328,89.99,0,NaN,5.9559,857.11,334.91,2e-3,0.11986
0.224,0.0014259,15.516,82.192,15.516,82.192,2.4887e-7,0,2.4887e-7,0,0.002708,0.014345,43.796,-120.65,9.8008,11.504,0,0,0,34.641,8.3554,54.079,0.10295,NaN,2.5023,NaN,0.047279,3384878,3188.2,1.4783,0.58648,0.71914,0.39008,0.076107,0.12029,NaN,NaN,NaN,NaN,NaN,NaN,NaN,NaN,0.0016333,0.1397,0.015328,89.99,0,NaN,5.9557,857.11,334.91,2e-3,0.12059
0.226,0.0014571,15.68,82.181,15.68,82.181,2.5431e-7,0,2.5431e-7,0,0.0027367,0.014343,43.796,-120.65,9.8008,11.424,0,0,0,34.637,8.3517,54.077,0.10295,NaN,2.5022,NaN,0.047767,3419774,3187.5,1.5064,0.58637,0.71793,0.38997,0.076108,0.1203,NaN,NaN,NaN,NaN,NaN,NaN,NaN,NaN,0.0016506,0.1397,0.015328,89.99,0,NaN,5.9555,857.11,334.91,2e-3,0.1213
0.228,0.0014886,15.844,82.169,15.844,82.169,2.5982e-7,0,2.5982e-7,0,0.0027654,0.014341,43.796,-120.65,9.8008,11.347,0,0,0,34.633,8.3481,54.075,0.10294,NaN,2.5021,NaN,0.048254,3454671,3186.8,1.5348,0.58627,0.71674,0.38986,0.076109,0.1203,NaN,NaN,NaN,NaN,NaN,NaN,NaN,NaN,0.0016679,0.1397,0.015328,89.99,0,NaN,5.9553,857.1,334.91,2e-3,0.12209
0.23,0.0015205,16.009,82.157,16.009,82.157,2.6538e-7,0,2.6538e-7,0,0.002794,0.014339,43.796,-120.65,9.8008,11.271,0,0,0,34.63,8.3445,54.073,0.10294,NaN,2.502,NaN,0.048742,3489569,3186,1.5634,0.58617,0.71557,0.38975,0.076111,0.12031,NaN,NaN,NaN,NaN,NaN,NaN,NaN,NaN,0.0016852,0.1397,0.015328,89.99,0,NaN,5.9551,857.1,334.91,2e-3,0.12281
0.232,0.0015527,16.173,82.145,16.173,82.145,2.7099e-7,0,2.7099e-7,0,0.0028227,0.014337,43.796,-120.65,9.8008,11.196,0,0,0,34.626,8.3409,54.071,0.10293,NaN,2.502,NaN,0.049229,3524467,3185.3,1.5922,0.58607,0.71441,0.38965,0.076112,0.12032,NaN,NaN,NaN,NaN,NaN,NaN,NaN,NaN,0.0017025,0.1397,0.015328,89.99,0,NaN,5.9549,857.1,334.91,2e-3,0.12352
0.234,0.0015852,16.337,82.133,16.337,82.133,2.7667e-7,0,2.7667e-7,0,0.0028514,0.014335,43.796,-120.65,9.8008,11.123,0,0,0,34.623,8.3373,54.069,0.10293,NaN,2.5019,NaN,0.049717,3559367,3184.6,1.6213,0.58598,0.71327,0.38954,0.076114,0.12032,NaN,NaN,NaN,NaN,NaN,NaN,NaN,NaN,0.0017198,0.1397,0.015328,89.99,0,NaN,5.9547,857.09,334.91,2e-3,0.12424
0.236,0.001618,16.502,82.122,16.502,82.122,2.824e-7,0,2.824e-7,0,0.0028801,0.014333,43.796,-120.65,9.8008,11.051,0,0,0,34.619,8.3337,54.067,0.10293,NaN,2.5018,NaN,0.050205,3594267,3183.9,1.6506,0.58588,0.71214,0.38944,0.076115,0.12033,NaN,NaN,NaN,NaN,NaN,NaN,NaN,NaN,0.0017371,0.1397,0.015328,89.99,0,NaN,5.9545,857.09,334.91,2e-3,0.12495
0.238,0.0016512,16.666,82.11,16.666,82.11,2.8819e-7,0,2.8819e-7,0,0.0029087,0.014331,43.796,-120.65,9.8008,10.981,0,0,0,34.615,8.3301,54.065,0.10292,NaN,2.5018,NaN,0.050692,3629167,3183.2,1.6802,0.58579,0.71103,0.38933,0.076117,0.12033,NaN,NaN,NaN,NaN,NaN,NaN,NaN,NaN,0.0017544,0.1397,0.015328,89.99,0,NaN,5.9543,857.09,334.91,2e-3,0.12588
0.24,0.0016847,16.83,82.098,16.83,82.098,2.9403e-7,0,2.9403e-7,0,0.0029374,0.014329,43.796,-120.65,9.8008,10.912,0,0,0,34.612,8.3265,54.063,0.10292,NaN,2.5017,NaN,0.05118,3664067,3182.5,1.7101,0.58569,0.70994,0.38923,0.076118,0.12034,NaN,NaN,NaN,NaN,NaN,NaN,NaN,NaN,0.0017717,0.1397,0.015328,89.99,0,NaN,5.954,857.08,334.91,2e-3,0.1266
0.242,0.0017185,16.994,82.086,16.994,82.086,2.9994e-7,0,2.9994e-7,0,0.0029661,0.014327,43.796,-120.65,9.8008,10.844,0,0,0,34.608,8.3229,54.061,0.10291,NaN,2.5016,NaN,0.051668,3698967,3181.8,1.7402,0.5856,0.70886,0.38913,0.07612,0.12035,NaN,NaN,NaN,NaN,NaN,NaN,NaN,NaN,0.001789,0.1397,0.015328,89.99,0,NaN,5.9538,857.08,334.91,2e-3,0.12734
0.244,0.0017527,17.158,82.074,17.158,82.074,3.059e-7,0,3.059e-7,0,0.0029947,0.014325,43.796,-120.65,9.8008,10.778,0,0,0,34.605,8.3193,54.059,0.10291,NaN,2.5016,NaN,0.052155,3733867,3181.1,1.7705,0.58551,0.7078,0.38903,0.076121,0.12035,NaN,NaN,NaN,NaN,NaN,NaN,NaN,NaN,0.0018063,0.1397,0.015328,89.99,0,NaN,5.9536,857.07,334.91,2e-3,0.12807
0.246,0.0017871,17.323,82.063,17.323,82.063,3.1191e-7,0,3.1191e-7,0,0.0030234,0.014323,43.796,-120.65,9.8008,10.713,0,0,0,34.601,8.3157,54.057,0.1029,NaN,2.5015,NaN,0.052643,3768767,3180.4,1.8011,0.58542,0.70675,0.38894,0.076123,0.12036,NaN,NaN,NaN,NaN,NaN,NaN,NaN,NaN,0.0018236,0.1397,0.015328,89.99,0,NaN,5.9534,857.07,334.91,2e-3,0.12882
0.248,0.0018219,17.487,82.051,17.487,82.051,3.1799e-7,0,3.1799e-7,0,0.003052,0.014321,43.796,-120.65,9.8008,10.649,0,0,0,34.597,8.3121,54.055,0.1029,NaN,2.5014,NaN,0.053131,3803666,3179.7,1.8319,0.58533,0.70572,0.38884,0.076125,0.12037,NaN,NaN,NaN,NaN,NaN,NaN,NaN,NaN,0.0018408,0.1397,0.015328,89.99,0,NaN,5.9532,857.07,334.91,2e-3,0.1296
0.25,0.0018571,17.651,82.039,17.651,82.039,3.2412e-7,0,3.2412e-7,0,0.0030807,0.014318,43.796,-120.65,9.8008,10.586,0,0,0,34.594,8.3085,54.053,0.1029,NaN,2.5013,NaN,0.053618,3838565,3178.9,1.863,0.58524,0.7047,0.38874,0.076126,0.12037,NaN,NaN,NaN,NaN,NaN,NaN,NaN,NaN,0.0018581,0.1397,0.015328,89.99,0,NaN,5.9529,857.06,334.91,2e-3,0.13035
0.252,0.0018926,17.815,82.027,17.815,82.027,3.3031e-7,0,3.3031e-7,0,0.0031093,0.014316,43.796,-120.65,9.8008,10.507,0,0,0,34.59,8.3049,54.051,0.10289,NaN,2.5013,NaN,0.054103,3873240,3178.2,1.8934,0.58516,0.70344,0.38865,0.076128,0.12038,NaN,NaN,NaN,NaN,NaN,NaN,NaN,NaN,0.0018754,0.1397,0.015328,89.99,0,NaN,5.9527,857.06,334.91,2e-3,0.13107
0.254,0.0019283,17.979,82.015,17.979,82.015,3.3656e-7,0,3.3656e-7,0,0.0031379,0.014314,43.796,-120.65,9.8008,10.429,0,0,0,34.587,8.3013,54.049,0.10289,NaN,2.5012,NaN,0.054587,3907918,3177.5,1.9241,0.58507,0.7022,0.38856,0.076129,0.12039,NaN,NaN,NaN,NaN,NaN,NaN,NaN,NaN,0.0018927,0.1397,0.015328,89.99,0,NaN,5.9525,857.06,334.91,2e-3,0.13178
0.256,0.0019645,18.143,82.003,18.143,82.003,3.4286e-7,0,3.4286e-7,0,0.0031666,0.014312,43.796,-120.65,9.8008,10.353,0,0,0,34.583,8.2977,54.047,0.10288,NaN,2.5011,NaN,0.055072,3942598,3176.8,1.955,0.58499,0.70097,0.38846,0.076131,0.12039,NaN,NaN,NaN,NaN,NaN,NaN,NaN,NaN,0.0019099,0.1397,0.015328,89.99,0,NaN,5.9522,857.05,334.91,2e-3,0.13249
0.258,0.0020009,18.307,81.991,18.307,81.991,3.4923e-7,0,3.4923e-7,0,0.0031952,0.01431,43.796,-120.65,9.8008,10.278,0,0,0,34.579,8.2941,54.046,0.10288,NaN,2.5011,NaN,0.055557,3977279,3176.1,1.9861,0.58491,0.69977,0.38837,0.076133,0.1204,NaN,NaN,NaN,NaN,NaN,NaN,NaN,NaN,0.0019272,0.1397,0.015328,89.99,0,NaN,5.952,857.05,334.91,2e-3,0.13321
0.26,0.0020377,18.471,81.979,18.471,81.979,3.5565e-7,0,3.5565e-7,0,0.0032238,0.014308,43.796,-120.65,9.8008,10.204,0,0,0,34.576,8.2905,54.044,0.10287,NaN,2.501,NaN,0.056041,4011962,3175.4,2.0175,0.58482,0.69857,0.38828,0.076134,0.12041,NaN,NaN,NaN,NaN,NaN,NaN,NaN,NaN,0.0019445,0.1397,0.015328,89.99,0,NaN,5.9518,857.04,334.91,2e-3,0.13412
0.262,0.0020748,18.635,81.968,18.635,81.968,3.6212e-7,0,3.6212e-7,0,0.0032524,0.014306,43.796,-120.65,9.8008,10.132,0,0,0,34.572,8.2869,54.042,0.10287,NaN,2.5009,NaN,0.056526,4046646,3174.7,2.049,0.58474,0.6974,0.38819,0.076136,0.12042,NaN,NaN,NaN,NaN,NaN,NaN,NaN,NaN,0.0019617,0.1397,0.015328,89.99,0,NaN,5.9515,857.04,334.91,2e-3,0.13555
0.264,0.0021122,18.799,81.956,18.799,81.956,3.6866e-7,0,3.6866e-7,0,0.0032811,0.014304,43.796,-120.65,9.8008,10.06,0,0,0,34.569,8.2833,54.04,0.10286,NaN,2.5008,NaN,0.057011,4081331,3174,2.0809,0.58466,0.69624,0.3881,0.076138,0.12042,NaN,NaN,NaN,NaN,NaN,NaN,NaN,NaN,0.001979,0.1397,0.015328,89.99,0,NaN,5.9513,857.04,334.91,2e-3,0.1363
0.266,0.00215,18.963,81.944,18.963,81.944,3.7525e-7,0,3.7525e-7,0,0.0033097,0.014302,43.796,-120.65,9.8008,9.9903,0,0,0,34.565,8.2797,54.038,0.10286,NaN,2.5008,NaN,0.057495,4116016,3173.3,2.1129,0.58458,0.6951,0.38802,0.076139,0.12043,NaN,NaN,NaN,NaN,NaN,NaN,NaN,NaN,0.0019962,0.1397,0.015328,89.99,0,NaN,5.951,857.03,334.91,2e-3,0.13702
0.268,0.0021881,19.127,81.932,19.127,81.932,3.8189e-7,0,3.8189e-7,0,0.0033383,0.0143,43.796,-120.65,9.8008,9.9214,0,0,0,34.561,8.2761,54.036,0.10286,NaN,2.5007,NaN,0.05798,4150703,3172.6,2.1452,0.58451,0.69397,0.38793,0.076141,0.12044,NaN,NaN,NaN,NaN,NaN,NaN,NaN,NaN,0.0020135,0.1397,0.015328,89.99,0,NaN,5.9508,857.03,334.91,2e-3,0.13778
0.27,0.0022265,19.291,81.92,19.291,81.92,3.886e-7,0,3.886e-7,0,0.0033669,0.014298,43.796,-120.65,9.8008,9.8537,0,0,0,34.558,8.2725,54.034,0.10285,NaN,2.5006,NaN,0.058465,4185390,3171.8,2.1777,0.58443,0.69286,0.38784,0.076143,0.12044,NaN,NaN,NaN,NaN,NaN,NaN,NaN,NaN,0.0020307,0.1397,0.015328,89.99,0,NaN,5.9505,857.02,334.9,2e-3,0.13849
0.272,0.0022653,19.455,81.908,19.455,81.908,3.9536e-7,0,3.9536e-7,0,0.0033955,0.014296,43.796,-120.65,9.8008,9.7872,0,0,0,34.554,8.2689,54.032,0.10285,NaN,2.5006,NaN,0.05895,4220077,3171.1,2.2105,0.58435,0.69177,0.38776,0.076145,0.12045,NaN,NaN,NaN,NaN,NaN,NaN,NaN,NaN,0.002048,0.1397,0.015328,89.99,0,NaN,5.9503,857.02,334.9,2e-3,0.13921
0.274,0.0023043,19.618,81.896,19.618,81.896,4.0218e-7,0,4.0218e-7,0,0.0034241,0.014294,43.796,-120.65,9.8008,9.7217,0,0,0,34.551,8.2653,54.03,0.10284,NaN,2.5005,NaN,0.059434,4254765,3170.4,2.2435,0.58428,0.69069,0.38767,0.076146,0.12046,NaN,NaN,NaN,NaN,NaN,NaN,NaN,NaN,0.0020652,0.1397,0.015328,89.99,0,NaN,5.95,857.02,334.9,2e-3,0.13992
0.276,0.0023437,19.782,81.884,19.782,81.884,4.0906e-7,0,4.0906e-7,0,0.0034527,0.014291,43.796,-120.65,9.8008,9.6573,0,0,0,34.547,8.2617,54.028,0.10284,NaN,2.5004,NaN,0.059919,4289453,3169.7,2.2767,0.58421,0.68962,0.38759,0.076148,0.12047,NaN,NaN,NaN,NaN,NaN,NaN,NaN,NaN,0.0020825,0.1397,0.015328,89.99,0,NaN,5.9498,857.01,334.9,2e-3,0.14064
0.278,0.0023835,19.946,81.872,19.946,81.872,4.1599e-7,0,4.1599e-7,0,0.0034812,0.014289,43.796,-120.65,9.8008,9.594,0,0,0,34.543,8.2581,54.026,0.10283,NaN,2.5004,NaN,0.060404,4324140,3169,2.3101,0.58413,0.68857,0.38751,0.07615,0.12047,NaN,NaN,NaN,NaN,NaN,NaN,NaN,NaN,0.0020997,0.1397,0.015328,89.99,0,NaN,5.9495,857.01,334.9,2e-3,0.14141
0.28,0.0024235,20.11,81.86,20.11,81.86,4.2298e-7,0,4.2298e-7,0,0.0035098,0.014287,43.796,-120.65,9.8008,9.5316,0,0,0,34.54,8.2545,54.024,0.10283,NaN,2.5003,NaN,0.060889,4358828,3168.3,2.3438,0.58406,0.68754,0.38743,0.076152,0.12048,NaN,NaN,NaN,NaN,NaN,NaN,NaN,NaN,0.002117,0.1397,0.015328,89.99,0,NaN,5.9492,857,334.9,2e-3,0.14213
0.282,0.0024639,20.274,81.848,20.274,81.848,4.3003e-7,0,4.3003e-7,0,0.0035384,0.014285,43.796,-120.65,9.8008,9.4703,0,0,0,34.536,8.2509,54.022,0.10283,NaN,2.5002,NaN,0.061374,4393515,3167.6,2.3778,0.58399,0.68652,0.38735,0.076153,0.12049,NaN,NaN,NaN,NaN,NaN,NaN,NaN,NaN,0.0021342,0.1397,0.015328,89.99,0,NaN,5.949,857,334.9,2e-3,0.14284
0.284,0.0025046,20.437,81.836,20.437,81.836,4.3714e-7,0,4.3714e-7,0,0.003567,0.014283,43.796,-120.65,9.8008,9.4099,0,0,0,34.533,8.2473,54.02,0.10282,NaN,2.5001,NaN,0.061858,4428201,3166.9,2.4119,0.58392,0.68552,0.38727,0.076155,0.1205,NaN,NaN,NaN,NaN,NaN,NaN,NaN,NaN,0.0021514,0.1397,0.015328,89.99,0,NaN,5.9487,856.99,334.9,2e-3,0.14356
0.286,0.0025456,20.601,81.824,20.601,81.824,4.443e-7,0,4.443e-7,0,0.0035955,0.014281,43.796,-120.65,9.8008,9.3505,0,0,0,34.529,8.2437,54.018,0.10282,NaN,2.5001,NaN,0.062343,4462887,3166.2,2.4463,0.58385,0.68453,0.38719,0.076157,0.12051,NaN,NaN,NaN,NaN,NaN,NaN,NaN,NaN,0.0021687,0.1397,0.015328,89.99,0,NaN,5.9485,856.99,334.9,2e-3,0.14428
0.288,0.002587,20.765,81.812,20.765,81.812,4.5152e-7,0,4.5152e-7,0,0.0036241,0.014279,43.796,-120.65,9.8008,9.292,0,0,0,34.525,8.2401,54.016,0.10281,NaN,2.5,NaN,0.062828,4497573,3165.4,2.481,0.58378,0.68355,0.38711,0.076159,0.12051,NaN,NaN,NaN,NaN,NaN,NaN,NaN,NaN,0.0021859,0.1397,0.015328,89.99,0,NaN,5.9482,856.99,334.9,2e-3,0.14512
0.29,0.0026287,20.928,81.8,20.928,81.8,4.5879e-7,0,4.5879e-7,0,0.0036527,0.014277,43.796,-120.65,9.8008,9.2344,0,0,0,34.522,8.2365,54.014,0.10281,NaN,2.4999,NaN,0.063313,4532257,3164.7,2.5158,0.58371,0.68259,0.38703,0.076161,0.12052,NaN,NaN,NaN,NaN,NaN,NaN,NaN,NaN,0.0022031,0.1397,0.015328,89.99,0,NaN,5.9479,856.98,334.9,2e-3,0.14587
0.292,0.0026707,21.092,81.788,21.092,81.788,4.6613e-7,0,4.6613e-7,0,0.0036812,0.014275,43.796,-120.65,9.8008,9.1777,0,0,0,34.518,8.2329,54.012,0.1028,NaN,2.4999,NaN,0.063797,4566941,3164,2.551,0.58364,0.68164,0.38695,0.076163,0.12053,NaN,NaN,NaN,NaN,NaN,NaN,NaN,NaN,0.0022203,0.1397,0.015328,89.99,0,NaN,5.9476,856.98,334.9,2e-3,0.14687
0.294,0.0027131,21.255,81.776,21.255,81.776,4.7352e-7,0,4.7352e-7,0,0.0037098,0.014273,43.796,-120.65,9.8008,9.1219,0,0,0,34.515,8.2293,54.01,0.1028,NaN,2.4998,NaN,0.064282,4601624,3163.3,2.5863,0.58358,0.6807,0.38688,0.076165,0.12054,NaN,NaN,NaN,NaN,NaN,NaN,NaN,NaN,0.0022376,0.1397,0.015328,89.99,0,NaN,5.9474,856.97,334.9,2e-3,0.14759
0.296,0.0027557,21.419,81.764,21.419,81.764,4.8097e-7,0,4.8097e-7,0,0.0037383,0.01427,43.796,-120.65,9.8008,9.0669,0,0,0,34.511,8.2257,54.008,0.1028,NaN,2.4997,NaN,0.064767,4636305,3162.6,2.6219,0.58351,0.67978,0.3868,0.076167,0.12055,NaN,NaN,NaN,NaN,NaN,NaN,NaN,NaN,0.0022548,0.1397,0.015328,89.99,0,NaN,5.9471,856.97,334.9,2e-3,0.14833
0.298,0.0027987,21.583,81.752,21.583,81.752,4.8847e-7,0,4.8847e-7,0,0.0037669,0.014268,43.796,-120.65,9.8008,9.0128,0,0,0,34.507,8.2221,54.006,0.10279,NaN,2.4996,NaN,0.065252,4670985,3161.9,2.6577,0.58345,0.67887,0.38672,0.076168,0.12055,NaN,NaN,NaN,NaN,NaN,NaN,NaN,NaN,0.002272,0.1397,0.015328,89.99,0,NaN,5.9468,856.96,334.9,2e-3,0.14937
0.3,0.0028421,21.746,81.74,21.746,81.74,4.9604e-7,0,4.9604e-7,0,0.0037954,0.014266,43.796,-120.65,9.8008,8.9594,0,0,0,34.504,8.2185,54.004,0.10279,NaN,2.4996,NaN,0.065736,4705664,3161.2,2.6938,0.58338,0.67798,0.38665,0.07617,0.12056,NaN,NaN,NaN,NaN,NaN,NaN,NaN,NaN,0.0022892,0.1397,0.015328,89.99,0,NaN,5.9465,856.96,334.9,2e-3,0.15049
0.302,0.0028857,21.91,81.728,21.91,81.728,5.0365e-7,0,5.0365e-7,0,0.0038239,0.014264,43.796,-120.65,9.8008,8.913,0,0,0,34.5,8.2149,54.002,0.10278,NaN,2.4995,NaN,0.066222,4740422,3160.5,2.7305,0.58332,0.67719,0.38658,0.076172,0.12057,NaN,NaN,NaN,NaN,NaN,NaN,NaN,NaN,0.0023064,0.1397,0.015328,89.99,0,NaN,5.9462,856.95,334.9,2e-3,0.15122
0.304,0.0029297,22.073,81.715,22.073,81.715,5.1133e-7,0,5.1133e-7,0,0.0038525,0.014262,43.796,-120.65,9.8008,8.8674,0,0,0,34.497,8.2113,54,0.10278,NaN,2.4994,NaN,0.066708,4775177,3159.8,2.7675,0.58326,0.67641,0.3865,0.076174,0.12058,NaN,NaN,NaN,NaN,NaN,NaN,NaN,NaN,0.0023236,0.1397,0.015328,89.99,0,NaN,5.946,856.95,334.9,2e-3,0.15193
0.306,0.002974,22.236,81.703,22.236,81.703,5.1906e-7,0,5.1906e-7,0,0.003881,0.01426,43.796,-120.65,9.8008,8.8223,0,0,0,34.493,8.2077,53.998,0.10277,NaN,2.4994,NaN,0.067194,4809930,3159.1,2.8048,0.58319,0.67565,0.38643,0.076176,0.12059,NaN,NaN,NaN,NaN,NaN,NaN,NaN,NaN,0.0023408,0.1397,0.015328,89.99,0,NaN,5.9457,856.94,334.9,2e-3,0.15265
0.308,0.0030187,22.4,81.691,22.4,81.691,5.2686e-7,0,5.2686e-7,0,0.0039095,0.014258,43.796,-120.65,9.8008,8.778,0,0,0,34.489,8.2041,53.996,0.10277,NaN,2.4993,NaN,0.067679,4844680,3158.3,2.8423,0.58313,0.67489,0.38636,0.076178,0.1206,NaN,NaN,NaN,NaN,NaN,NaN,NaN,NaN,0.002358,0.1397,0.015328,89.99,0,NaN,5.9454,856.94,334.9,2e-3,0.15341
0.31,0.0030636,22.563,81.679,22.563,81.679,5.347e-7,0,5.347e-7,0,0.003938,0.014256,43.796,-120.65,9.8008,8.7342,0,0,0,34.486,8.2005,53.994,0.10277,NaN,2.4992,NaN,0.068165,4879427,3157.6,2.88,0.58307,0.67415,0.38629,0.07618,0.1206,NaN,NaN,NaN,NaN,NaN,NaN,NaN,NaN,0.0023752,0.1397,0.015328,89.99,0,NaN,5.9451,856.93,334.9,2e-3,0.15415
0.312,0.0031089,22.727,81.667,22.727,81.667,5.4261e-7,0,5.4261e-7,0,0.0039665,0.014254,43.796,-120.65,9.8008,8.6911,0,0,0,34.482,8.1969,53.992,0.10276,NaN,2.4991,NaN,0.068651,4914172,3156.9,2.918,0.58301,0.67341,0.38621,0.076182,0.12061,NaN,NaN,NaN,NaN,NaN,NaN,NaN,NaN,0.0023924,0.1397,0.015328,89.99,0,NaN,5.9448,856.93,334.9,2e-3,0.15487
0.314,0.0031545,22.89,81.655,22.89,81.655,5.5057e-7,0,5.5057e-7,0,0.0039951,0.014251,43.796,-120.65,9.8008,8.6487,0,0,0,34.479,8.1933,53.99,0.10276,NaN,2.4991,NaN,0.069136,4948914,3156.2,2.9563,0.58295,0.67269,0.38614,0.076184,0.12062,NaN,NaN,NaN,NaN,NaN,NaN,NaN,NaN,0.0024096,0.1397,0.015328,89.99,0,NaN,5.9445,856.93,334.9,2e-3,0.15561
0.316,0.0032005,23.053,81.643,23.053,81.643,5.5859e-7,0,5.5859e-7,0,0.0040236,0.014249,43.796,-120.65,9.8008,8.6068,0,0,0,34.475,8.1896,53.989,0.10275,NaN,2.499,NaN,0.069622,4983653,3155.5,2.9947,0.58289,0.67197,0.38607,0.076186,0.12063,NaN,NaN,NaN,NaN,NaN,NaN,NaN,NaN,0.0024268,0.1397,0.015328,89.99,0,NaN,5.9442,856.92,334.9,2e-3,0.15632
0.318,0.0032467,23.217,81.63,23.217,81.63,5.6666e-7,0,5.6666e-7,0,0.0040521,0.014247,43.796,-120.65,9.8008,8.5655,0,0,0,34.471,8.186,53.987,0.10275,NaN,2.4989,NaN,0.070108,5018389,3154.8,3.0335,0.58283,0.67127,0.38601,0.076189,0.12064,NaN,NaN,NaN,NaN,NaN,NaN,NaN,NaN,0.002444,0.1397,0.015328,89.99,0,NaN,5.9439,856.92,334.9,2e-3,0.15704
0.32,0.0032933,23.38,81.618,23.38,81.618,5.748e-7,0,5.748e-7,0,0.0040806,0.014245,43.796,-120.65,9.8008,8.5248,0,0,0,34.468,8.1824,53.985,0.10274,NaN,2.4989,NaN,0.070593,5053122,3154.1,3.0724,0.58278,0.67057,0.38594,0.076191,0.12065,NaN,NaN,NaN,NaN,NaN,NaN,NaN,NaN,0.0024612,0.1397,0.015328,89.99,0,NaN,5.9436,856.91,334.9,2e-3,0.15783
0.322,0.0033403,23.543,81.606,23.543,81.606,5.8299e-7,0,5.8299e-7,0,0.0041091,0.014243,43.796,-120.65,9.8008,8.4846,0,0,0,34.464,8.1788,53.983,0.10274,NaN,2.4988,NaN,0.071079,5087853,3153.4,3.1116,0.58272,0.66989,0.38587,0.076193,0.12066,NaN,NaN,NaN,NaN,NaN,NaN,NaN,NaN,0.0024784,0.1397,0.015328,89.99,0,NaN,5.9433,856.91,334.9,2e-3,0.15854
0.324,0.0033875,23.706,81.594,23.706,81.594,5.9123e-7,0,5.9123e-7,0,0.0041375,0.014241,43.796,-120.65,9.8008,8.445,0,0,0,34.461,8.1752,53.981,0.10274,NaN,2.4987,NaN,0.071564,5122580,3152.7,3.1511,0.58266,0.66921,0.3858,0.076195,0.12067,NaN,NaN,NaN,NaN,NaN,NaN,NaN,NaN,0.0024956,0.1397,0.015328,89.99,0,NaN,5.943,856.9,334.9,2e-3,0.15926
0.326,0.0034351,23.87,81.582,23.87,81.582,5.9954e-7,0,5.9954e-7,0,0.004166,0.014239,43.796,-120.65,9.8008,8.406,0,0,0,34.457,8.1716,53.979,0.10273,NaN,2.4986,NaN,0.07205,5157304,3152,3.1908,0.58261,0.66855,0.38573,0.076197,0.12067,NaN,NaN,NaN,NaN,NaN,NaN,NaN,NaN,0.0025128,0.1397,0.015328,89.99,0,NaN,5.9427,856.9,334.9,2e-3,0.15998
0.328,0.003483,24.033,81.569,24.033,81.569,6.079e-7,0,6.079e-7,0,0.0041945,0.014237,43.796,-120.65,9.8008,8.3674,0,0,0,34.453,8.168,53.977,0.10273,NaN,2.4986,NaN,0.072535,5192024,3151.2,3.2307,0.58255,0.66789,0.38567,0.076199,0.12068,NaN,NaN,NaN,NaN,NaN,NaN,NaN,NaN,0.0025299,0.1397,0.015328,89.99,0,NaN,5.9424,856.89,334.9,2e-3,0.16073
0.33,0.0035312,24.196,81.557,24.196,81.557,6.1631e-7,0,6.1631e-7,0,0.004223,0.014234,43.796,-120.65,9.8008,8.3294,0,0,0,34.45,8.1644,53.975,0.10272,NaN,2.4985,NaN,0.07302,5226742,3150.5,3.2709,0.5825,0.66724,0.3856,0.076201,0.12069,NaN,NaN,NaN,NaN,NaN,NaN,NaN,NaN,0.0025471,0.1397,0.015328,89.99,0,NaN,5.942,856.89,334.9,2e-3,0.16149
0.332,0.0035798,24.359,81.545,24.359,81.545,6.2479e-7,0,6.2479e-7,0,0.0042515,0.014232,43.796,-120.65,9.8008,8.2919,0,0,0,34.446,8.1608,53.973,0.10272,NaN,2.4984,NaN,0.073506,5261456,3149.8,3.3113,0.58244,0.6666,0.38554,0.076203,0.1207,NaN,NaN,NaN,NaN,NaN,NaN,NaN,NaN,0.0025643,0.1397,0.015328,89.99,0,NaN,5.9417,856.88,334.9,2e-3,0.16221
0.334,0.0036287,24.522,81.533,24.522,81.533,6.3332e-7,0,6.3332e-7,0,0.0042799,0.01423,43.796,-120.65,9.8008,8.2549,0,0,0,34.443,8.1572,53.971,0.10271,NaN,2.4984,NaN,0.073991,5296167,3149.1,3.352,0.58239,0.66597,0.38547,0.076206,0.12071,NaN,NaN,NaN,NaN,NaN,NaN,NaN,NaN,0.0025814,0.1397,0.015328,89.99,0,NaN,5.9414,856.87,334.9,2e-3,0.16298
0.336,0.0036779,24.685,81.52,24.685,81.52,6.4191e-7,0,6.4191e-7,0,0.0043084,0.014228,43.796,-120.65,9.8008,8.2184,0,0,0,34.439,8.1536,53.969,0.10271,NaN,2.4983,NaN,0.074476,5330874,3148.4,3.3929,0.58234,0.66535,0.38541,0.076208,0.12072,NaN,NaN,NaN,NaN,NaN,NaN,NaN,NaN,0.0025986,0.1397,0.015328,89.99,0,NaN,5.9411,856.87,334.9,2e-3,0.1639
0.338,0.0037274,24.848,81.508,24.848,81.508,6.5055e-7,0,6.5055e-7,0,0.0043368,0.014226,43.796,-120.65,9.8008,8.1824,0,0,0,34.435,8.15,53.967,0.1027,NaN,2.4982,NaN,0.074961,5365578,3147.7,3.4341,0.58228,0.66473,0.38534,0.07621,0.12073,NaN,NaN,NaN,NaN,NaN,NaN,NaN,NaN,0.0026158,0.1397,0.015328,89.99,0,NaN,5.9408,856.86,334.9,2e-3,0.16467
0.34,0.0037773,25.011,81.496,25.011,81.496,6.5925e-7,0,6.5925e-7,0,0.0043653,0.014224,43.796,-120.65,9.8008,8.1469,0,0,0,34.432,8.1464,53.965,0.1027,NaN,2.4982,NaN,0.075446,5400278,3147,3.4755,0.58223,0.66413,0.38528,0.076212,0.12074,NaN,NaN,NaN,NaN,NaN,NaN,NaN,NaN,0.0026329,0.1397,0.015328,89.99,0,NaN,5.9404,856.86,334.9,2e-3,0.16544
0.342,0.0038274,25.174,81.484,25.174,81.484,6.6801e-7,0,6.6801e-7,0,0.0043937,0.014222,43.796,-120.65,9.8008,8.1118,0,0,0,34.428,8.1428,53.963,0.1027,NaN,2.4981,NaN,0.075932,5434975,3146.3,3.5171,0.58218,0.66353,0.38522,0.076215,0.12075,NaN,NaN,NaN,NaN,NaN,NaN,NaN,NaN,0.0026501,0.1397,0.015328,89.99,0,NaN,5.9401,856.85,334.9,2e-3,0.16685
0.344,0.0038779,25.337,81.471,25.337,81.471,6.7683e-7,0,6.7683e-7,0,0.0044222,0.014219,43.796,-120.65,9.8008,8.0771,0,0,0,34.425,8.1392,53.961,0.10269,NaN,2.498,NaN,0.076417,5469668,3145.6,3.559,0.58213,0.66294,0.38515,0.076217,0.12076,NaN,NaN,NaN,NaN,NaN,NaN,NaN,NaN,0.0026673,0.1397,0.015328,89.99,0,NaN,5.9398,856.85,334.9,2e-3,0.16759
# Event LAUNCHROD occurred at t=0.346 seconds
0.346,0.0039288,25.5,81.459,25.5,81.46,6.857e-7,0,6.857e-7,0,0.0044506,0.33601,43.796,-120.65,9.8008,8.0429,0,0,0,34.421,8.1356,53.959,0.10269,2.4955,2.4979,-0.01754,0.076902,5504357,3144.7,3.6011,0.58208,0.66236,0.38509,0.076219,0.12077,2.2112,-0.0384,-1.1101e-4,0,0.013178,0.013178,0,0,0.0026844,0.1397,0.015328,89.99,0,NaN,5.9395,856.84,334.9,3e-3,0.16837
